name,pop,lat,lon
Canada,2,61.0666922,-107.9917071
China,9,25.4915799,-98.9811115045569
France,3,46.603354,1.8883335
Gambia,1,13.470062,-15.4900464
Germany,1,51.0834196,10.4234469
Italy,3,42.6384261,12.674297
Japan,3,36.5748441,139.2394179
Netherlands,5,52.2379891,5.53460738161551
Sudan,2,14.5844444,29.4917691
USA,17,39.7837304,-100.4458825
United Kingdom,48,25.2232283,55.1594933008754
Vietnam,2,13.2904027,108.4265113
