name,pop,lat,lon
Canada,35,61.0666922,-107.9917071
China,7,25.4915799,-98.9811115045569
Gabon,2,-0.8999695,11.6899699
Germany,1,51.0834196,10.4234469
India,9,22.3511148,78.6677428
Japan,6,36.5748441,139.2394179
Mongolia,1,46.8250388,103.8499736
Russia,1,64.6863136,97.7453061
South Korea,1,41.7816885,123.4204203
USA,78,39.7837304,-100.4458825
United Kingdom,4,25.2232283,55.1594933008754
